[{"id":"agate-pass-cafe-suquamish","name":"Agate Pass Cafe","phone":"+13609300911","rating":4.5,"lat":47.7299083466171,"lng":-122.552103507935,"zipcode":"98392","address":"7220 NE Pkwy St","categories":[{"alias":"newamerican","title":"American (New)"},{"alias":"french","title":"French"}]},{"id":"brileys-bbq-and-grill-lake-forest-park","name":"Brileys BBQ & Grill","phone":"+12064661589","rating":4.5,"lat":47.73862,"lng":-122.28998,"zipcode":"98155","address":"15030 Bothell Way NE","categories":[{"alias":"bbq","title":"Barbeque"},{"alias":"tradamerican","title":"American (Traditional)"}]},{"id":"mkt-seattle","name":"mkt.","phone":"+12068121580","rating":4.5,"lat":47.6686946,"lng":-122.3329512,"zipcode":"98103","address":"2108 N 55th St","categories":[{"alias":"newamerican","title":"American (New)"}]},{"id":"eden-hill-seattle","name":"Eden Hill","phone":"+12067086836","rating":4.5,"lat":47.63876,"lng":-122.35715,"zipcode":"98109","address":"2209 Queen Anne Ave N","categories":[{"alias":"newamerican","title":"American (New)"}]},{"id":"the-black-duck-cask-and-bottle-issaquah","name":"The Black Duck Cask and Bottle","phone":"+14253957138","rating":4.5,"lat":47.5402261123204,"lng":-122.041497345407,"zipcode":"98027","address":"317 NW Gilman Blvd","categories":[{"alias":"pizza","title":"Pizza"},{"alias":"gastropubs","title":"Gastropubs"},{"alias":"burgers","title":"Burgers"}]},{"id":"petra-mediterranean-bistro-seattle","name":"Petra Mediterranean Bistro","phone":"+12067285389","rating":4.5,"lat":47.61669,"lng":-122.34653,"zipcode":"98121","address":"2501 4th Ave","categories":[{"alias":"mediterranean","title":"Mediterranean"},{"alias":"mideastern","title":"Middle Eastern"},{"alias":"greek","title":"Greek"}]},{"id":"phorale-seattle","name":"Phorale","phone":"+12065190810","rating":4.5,"lat":47.52365,"lng":-122.31553,"zipcode":"98108","address":"8909 14th Ave S","categories":[{"alias":"vietnamese","title":"Vietnamese"},{"alias":"asianfusion","title":"Asian Fusion"},{"alias":"tex-mex","title":"Tex-Mex"}]},{"id":"taylor-shellfish-oyster-bar-seattle-2","name":"Taylor Shellfish Oyster Bar","phone":"+12065014060","rating":4.5,"lat":47.59884,"lng":-122.33268,"zipcode":"98104","address":"410 Occidental Ave S","categories":[{"alias":"seafood","title":"Seafood"},{"alias":"raw_food","title":"Live/Raw Food"}]},{"id":"phoenecia-seattle","name":"Phoenecia","phone":"+12069356550","rating":4.5,"lat":47.57901,"lng":-122.41011,"zipcode":"98116","address":"2716 Alki Ave SW","categories":[{"alias":"wine_bars","title":"Wine Bars"},{"alias":"pizza","title":"Pizza"},{"alias":"tapasmallplates","title":"Tapas/Small Plates"}]},{"id":"witness-seattle","name":"Witness","phone":"+12063290248","rating":4.5,"lat":47.6225508133524,"lng":-122.320680460381,"zipcode":"98102","address":"410 Broadway E","categories":[{"alias":"southern","title":"Southern"},{"alias":"cocktailbars","title":"Cocktail Bars"}]},{"id":"pop-pop-thai-street-food-seattle-8","name":"Pop Pop Thai Street Food","phone":"+12066952858","rating":4.5,"lat":47.72617,"lng":-122.34458,"zipcode":"98133","address":"13242 Aurora Ave N","categories":[{"alias":"thai","title":"Thai"},{"alias":"noodles","title":"Noodles"}]},{"id":"amazing-thai-cuisine-seattle","name":"Amazing Thai Cuisine","phone":"+12065280102","rating":4.5,"lat":47.66679,"lng":-122.31707,"zipcode":"98105","address":"5210 Roosevelt Way NE","categories":[{"alias":"thai","title":"Thai"}]},{"id":"the-stone-house-redmond","name":"The Stone House","phone":"+14255585625","rating":4.5,"lat":47.67387,"lng":-122.12395,"zipcode":"98052","address":"16244 Cleveland St","categories":[{"alias":"newamerican","title":"American (New)"}]},{"id":"the-company-store-seattle","name":"The Company Store","phone":"+12062571162","rating":4.5,"lat":47.51701,"lng":-122.35493,"zipcode":"98106","address":"9608 16th Ave SW","categories":[{"alias":"cocktailbars","title":"Cocktail Bars"},{"alias":"newamerican","title":"American (New)"},{"alias":"breakfast_brunch","title":"Breakfast & Brunch"}]},{"id":"dead-line-seattle","name":"Dead Line","phone":"+12065564956","rating":5,"lat":47.60114,"lng":-122.33379,"zipcode":"98104","address":"114 1st Ave S","categories":[{"alias":"lounges","title":"Lounges"},{"alias":"latin","title":"Latin American"},{"alias":"cocktailbars","title":"Cocktail Bars"}]},{"id":"913-the-place-next-door-burien","name":"913 - The Place Next Door","phone":"+12062437909","rating":5,"lat":47.4666405,"lng":-122.3465195,"zipcode":"98166","address":"913 SW 152nd St","categories":[{"alias":"newamerican","title":"American (New)"}]},{"id":"hiroshis-poke-seattle-3","name":"Hiroshi's Poke","phone":"+12065880908","rating":4.5,"lat":47.66359,"lng":-122.31609,"zipcode":"98105","address":"4712 11th Ave NE","categories":[{"alias":"poke","title":"Poke"},{"alias":"hawaiian","title":"Hawaiian"},{"alias":"japanese","title":"Japanese"}]},{"id":"meekong-bar-seattle-4","name":"Meekong Bar","phone":"+12062571030","rating":4.5,"lat":47.6167700829394,"lng":-122.346869073808,"zipcode":"98121","address":"2525 4th Ave","categories":[{"alias":"vietnamese","title":"Vietnamese"},{"alias":"burgers","title":"Burgers"},{"alias":"asianfusion","title":"Asian Fusion"}]},{"id":"draes-lake-route-seattle","name":"Drae's Lake Route","phone":"+12067229464","rating":4.5,"lat":47.51983,"lng":-122.26193,"zipcode":"98118","address":"9261 57th Ave S","categories":[{"alias":"chicken_wings","title":"Chicken Wings"},{"alias":"sandwiches","title":"Sandwiches"}]},{"id":"the-brick-pub-and-grill-renton-2","name":"The Brick Pub & Grill","phone":"+14252078951","rating":4.5,"lat":47.5006424514998,"lng":-122.185859951312,"zipcode":"98056","address":"1190 Sunset Blvd NE","categories":[{"alias":"newamerican","title":"American (New)"},{"alias":"bars","title":"Bars"},{"alias":"gastropubs","title":"Gastropubs"}]},{"id":"krungthep-thai-cuisine-seattle-2","name":"Krungthep Thai Cuisine","phone":"+12068299426","rating":4.5,"lat":47.48319,"lng":-122.3333321,"zipcode":"98168","address":"13260 1st Ave S","categories":[{"alias":"thai","title":"Thai"}]},{"id":"wataru-seattle","name":"Wataru","phone":"+12065252073","rating":4.5,"lat":47.67595,"lng":-122.3015,"zipcode":"98115","address":"2400 NE 65th St","categories":[{"alias":"sushi","title":"Sushi Bars"},{"alias":"japanese","title":"Japanese"}]},{"id":"the-walrus-and-the-carpenter-seattle","name":"The Walrus and the Carpenter","phone":"+12063959227","rating":4,"lat":47.66351,"lng":-122.38022,"zipcode":"98107","address":"4743 Ballard Ave NW","categories":[{"alias":"seafood","title":"Seafood"},{"alias":"raw_food","title":"Live/Raw Food"},{"alias":"tapasmallplates","title":"Tapas/Small Plates"}]},{"id":"jaime-les-crepes-bainbridge-island-2","name":"J'aime Les Crepes","phone":"+12068425276","rating":4.5,"lat":47.6250236481428,"lng":-122.519670724869,"zipcode":"98110","address":"143 Madrone Ln N","categories":[{"alias":"creperies","title":"Creperies"},{"alias":"desserts","title":"Desserts"},{"alias":"coffee","title":"Coffee & Tea"}]},{"id":"stock-seattle","name":"Stock","phone":"+12064023281","rating":4.5,"lat":47.67614,"lng":-122.36281,"zipcode":"98117","address":"500 NW 65th St","categories":[{"alias":"comfortfood","title":"Comfort Food"},{"alias":"soup","title":"Soup"}]},{"id":"gorgeous-georges-mediterranean-kitchen-seattle","name":"Gorgeous George's Mediterranean Kitchen","phone":"+12067830116","rating":4.5,"lat":47.68533,"lng":-122.35554,"zipcode":"98103","address":"7719 Greenwood Ave N","categories":[{"alias":"mideastern","title":"Middle Eastern"},{"alias":"greek","title":"Greek"},{"alias":"mediterranean","title":"Mediterranean"}]},{"id":"biscuit-bitch-seattle-5","name":"Biscuit Bitch","phone":"+12066231859","rating":4.5,"lat":47.60324,"lng":-122.3321,"zipcode":"98104","address":"621 3rd Ave","categories":[{"alias":"southern","title":"Southern"},{"alias":"breakfast_brunch","title":"Breakfast & Brunch"}]},{"id":"brimmer-and-heeltap-seattle","name":"Brimmer & Heeltap","phone":"+12064202534","rating":4,"lat":47.6685723625563,"lng":-122.363137557147,"zipcode":"98107","address":"425 NW Market St","categories":[{"alias":"newamerican","title":"American (New)"},{"alias":"breakfast_brunch","title":"Breakfast & Brunch"},{"alias":"cocktailbars","title":"Cocktail Bars"}]},{"id":"snapdragon-vashon","name":"Snapdragon","phone":"+12064631310","rating":4.5,"lat":47.44503,"lng":-122.46088,"zipcode":"98070","address":"17817 Vashon Hwy SW","categories":[{"alias":"vegetarian","title":"Vegetarian"},{"alias":"bakeries","title":"Bakeries"},{"alias":"pizza","title":"Pizza"}]},{"id":"nue-seattle","name":"Nue","phone":"+12062570312","rating":4.5,"lat":47.614434286952,"lng":-122.314304038882,"zipcode":"98122","address":"1519 14th Ave","categories":[{"alias":"tapasmallplates","title":"Tapas/Small Plates"},{"alias":"asianfusion","title":"Asian Fusion"},{"alias":"cocktailbars","title":"Cocktail Bars"}]},{"id":"meet-the-moon-seattle","name":"Meet the Moon","phone":"+12067079730","rating":4,"lat":47.6021513,"lng":-122.2849313,"zipcode":"98122","address":"120 Lakeside Ave","categories":[{"alias":"desserts","title":"Desserts"},{"alias":"breakfast_brunch","title":"Breakfast & Brunch"},{"alias":"bars","title":"Bars"}]},{"id":"biscuit-bitch-seattle","name":"Biscuit Bitch","phone":"+12064417999","rating":4,"lat":47.61034,"lng":-122.34167,"zipcode":"98101","address":"1909 1st Ave","categories":[{"alias":"breakfast_brunch","title":"Breakfast & Brunch"},{"alias":"coffee","title":"Coffee & Tea"},{"alias":"sandwiches","title":"Sandwiches"}]},{"id":"kauai-family-restaurant-seattle","name":"Kauai Family Restaurant","phone":"+12067623469","rating":4.5,"lat":47.54553,"lng":-122.32585,"zipcode":"98108","address":"6324 6th Ave S","categories":[{"alias":"hawaiian","title":"Hawaiian"},{"alias":"noodles","title":"Noodles"},{"alias":"soup","title":"Soup"}]},{"id":"facing-east-bellevue","name":"Facing East","phone":"+14256882986","rating":4,"lat":47.61992,"lng":-122.2028,"zipcode":"98004","address":"1075 Bellevue Way NE","categories":[{"alias":"chinese","title":"Chinese"},{"alias":"taiwanese","title":"Taiwanese"}]},{"id":"nikos-gyros-seattle","name":"Niko's Gyros","phone":"+12062854778","rating":4.5,"lat":47.63925,"lng":-122.39851,"zipcode":"98199","address":"2231 32nd Ave W","categories":[{"alias":"greek","title":"Greek"},{"alias":"mediterranean","title":"Mediterranean"}]},{"id":"lola-seattle","name":"Lola","phone":"+12064411430","rating":4,"lat":47.6132519777742,"lng":-122.340060726984,"zipcode":"98121","address":"2000 4th Ave","categories":[{"alias":"greek","title":"Greek"},{"alias":"mediterranean","title":"Mediterranean"},{"alias":"breakfast_brunch","title":"Breakfast & Brunch"}]},{"id":"ittos-tapas-seattle","name":"Itto's Tapas","phone":"+12069325039","rating":4.5,"lat":47.5648,"lng":-122.38655,"zipcode":"98126","address":"4160 California Ave SW","categories":[{"alias":"moroccan","title":"Moroccan"},{"alias":"tapas","title":"Tapas Bars"},{"alias":"spanish","title":"Spanish"}]},{"id":"kedai-makan-seattle-4","name":"Kedai Makan","phone":"","rating":4.5,"lat":47.6179,"lng":-122.32658,"zipcode":"98122","address":"1802 Bellevue Ave","categories":[{"alias":"malaysian","title":"Malaysian"},{"alias":"noodles","title":"Noodles"}]},{"id":"the-golden-olive-seattle-2","name":"The Golden Olive","phone":"+12062164674","rating":4.5,"lat":47.6235936,"lng":-122.3567067,"zipcode":"98109","address":"521 Queen Anne Ave N","categories":[{"alias":"mediterranean","title":"Mediterranean"},{"alias":"greek","title":"Greek"},{"alias":"lebanese","title":"Lebanese"}]},{"id":"xian-noodles-seattle-2","name":"Xi'an Noodles","phone":"+12065228888","rating":4,"lat":47.66815,"lng":-122.31319,"zipcode":"98105","address":"5259 University Way NE","categories":[{"alias":"chinese","title":"Chinese"},{"alias":"noodles","title":"Noodles"},{"alias":"hotpot","title":"Hot Pot"}]},{"id":"lorettas-northwesterner-seattle","name":"Loretta's Northwesterner","phone":"+12063279649","rating":4.5,"lat":47.52588,"lng":-122.31514,"zipcode":"98108","address":"8617 14th Ave S","categories":[{"alias":"bars","title":"Bars"},{"alias":"newamerican","title":"American (New)"},{"alias":"burgers","title":"Burgers"}]},{"id":"wildwood-market-seattle","name":"Wildwood Market","phone":"+12062571196","rating":4.5,"lat":47.5212092105903,"lng":-122.390180432645,"zipcode":"98136","address":"9214 45th Ave SW","categories":[{"alias":"sandwiches","title":"Sandwiches"},{"alias":"gourmet","title":"Specialty Food"},{"alias":"breakfast_brunch","title":"Breakfast & Brunch"}]},{"id":"mossback-kingston","name":"Mossback","phone":"+13603281254","rating":4.5,"lat":47.799623,"lng":-122.494963,"zipcode":"98346","address":"26185 Ohio Ave NE","categories":[{"alias":"newamerican","title":"American (New)"},{"alias":"cocktailbars","title":"Cocktail Bars"}]},{"id":"serious-pie-seattle","name":"Serious Pie","phone":"+12068387388","rating":4,"lat":47.61296,"lng":-122.34047,"zipcode":"98121","address":"316 Virginia St","categories":[{"alias":"pizza","title":"Pizza"}]},{"id":"tsukushinbo-seattle","name":"Tsukushinbo","phone":"+12064674004","rating":4,"lat":47.59985,"lng":-122.32681,"zipcode":"98104","address":"515 S Main St","categories":[{"alias":"japanese","title":"Japanese"},{"alias":"sushi","title":"Sushi Bars"},{"alias":"noodles","title":"Noodles"}]},{"id":"a-hong-kong-kitchen-seattle","name":"A + Hong Kong Kitchen","phone":"+12066821267","rating":4,"lat":47.59854,"lng":-122.32652,"zipcode":"98104","address":"419 6th Ave S","categories":[{"alias":"desserts","title":"Desserts"},{"alias":"cantonese","title":"Cantonese"},{"alias":"hkcafe","title":"Hong Kong Style Cafe"}]},{"id":"umi-sake-house-seattle","name":"Umi Sake House","phone":"+12063748717","rating":4,"lat":47.61339,"lng":-122.34597,"zipcode":"98121","address":"2230 1st Ave","categories":[{"alias":"sushi","title":"Sushi Bars"},{"alias":"japanese","title":"Japanese"}]},{"id":"toulouse-petit-kitchen-and-lounge-seattle","name":"Toulouse Petit Kitchen & Lounge","phone":"+12064329069","rating":4,"lat":47.624851,"lng":-122.357127,"zipcode":"98109","address":"601 Queen Anne Ave N","categories":[{"alias":"cajun","title":"Cajun/Creole"},{"alias":"breakfast_brunch","title":"Breakfast & Brunch"},{"alias":"bars","title":"Bars"}]},{"id":"purple-café-and-wine-bar-seattle-3","name":"Purple Café and Wine Bar","phone":"+12068292280","rating":4,"lat":47.60795,"lng":-122.33508,"zipcode":"98101","address":"1225 4th Ave","categories":[{"alias":"newamerican","title":"American (New)"},{"alias":"wine_bars","title":"Wine Bars"},{"alias":"desserts","title":"Desserts"}]},{"id":"quinns-seattle","name":"Quinn's","phone":"+12063257711","rating":4,"lat":47.61386,"lng":-122.31922,"zipcode":"98122","address":"1001 E Pike St","categories":[{"alias":"newamerican","title":"American (New)"},{"alias":"pubs","title":"Pubs"}]},{"id":"cactus-restaurants-seattle-2","name":"Cactus Restaurants","phone":"+12069336000","rating":4,"lat":47.5782800784475,"lng":-122.413087476886,"zipcode":"98116","address":"2820 Alki Ave SW","categories":[{"alias":"tex-mex","title":"Tex-Mex"},{"alias":"mexican","title":"Mexican"},{"alias":"newmexican","title":"New Mexican Cuisine"}]},{"id":"gourmet-noodle-bowl-seattle","name":"Gourmet Noodle Bowl","phone":"+12062648899","rating":4,"lat":47.596323,"lng":-122.322679,"zipcode":"98104","address":"707 8th Ave S","categories":[{"alias":"chinese","title":"Chinese"},{"alias":"taiwanese","title":"Taiwanese"},{"alias":"hotpot","title":"Hot Pot"}]},{"id":"tamarind-tree-seattle","name":"Tamarind Tree","phone":"+12068601404","rating":4,"lat":47.5998406645559,"lng":-122.317832050262,"zipcode":"98104","address":"1036 S Jackson St","categories":[{"alias":"vietnamese","title":"Vietnamese"},{"alias":"noodles","title":"Noodles"}]},{"id":"seven-beef-seattle","name":"Seven Beef","phone":"+12063287090","rating":4,"lat":47.605976,"lng":-122.315081,"zipcode":"98122","address":"1305 E Jefferson St","categories":[{"alias":"steak","title":"Steakhouses"},{"alias":"vietnamese","title":"Vietnamese"},{"alias":"wine_bars","title":"Wine Bars"}]},{"id":"côba-seattle-2","name":"CÔBA","phone":"+12062836614","rating":4,"lat":47.62411,"lng":-122.35523,"zipcode":"98109","address":"530 1st Ave N","categories":[{"alias":"vietnamese","title":"Vietnamese"},{"alias":"bars","title":"Bars"},{"alias":"seafood","title":"Seafood"}]},{"id":"bramling-cross-seattle-2","name":"Bramling Cross","phone":"+12064208192","rating":4,"lat":47.6655235290527,"lng":-122.382583618164,"zipcode":"98107","address":"5205 Ballard Ave","categories":[{"alias":"gastropubs","title":"Gastropubs"}]},{"id":"boat-street-kitchen-seattle-3","name":"Boat Street Kitchen","phone":"+12066324602","rating":4,"lat":47.61825,"lng":-122.35743,"zipcode":"98121","address":"3131 Western Ave","categories":[{"alias":"newamerican","title":"American (New)"},{"alias":"french","title":"French"},{"alias":"breakfast_brunch","title":"Breakfast & Brunch"}]},{"id":"harbor-city-restaurant-seattle","name":"Harbor City Restaurant","phone":"+12066212228","rating":4,"lat":47.59821,"lng":-122.32339,"zipcode":"98104","address":"707 S King St","categories":[{"alias":"bbq","title":"Barbeque"},{"alias":"dimsum","title":"Dim Sum"},{"alias":"cantonese","title":"Cantonese"}]},{"id":"revel-seattle","name":"Revel","phone":"+12065472040","rating":4,"lat":47.6520293,"lng":-122.3541981,"zipcode":"98103","address":"403 N 36th St","categories":[{"alias":"korean","title":"Korean"},{"alias":"newamerican","title":"American (New)"}]},{"id":"5-spot-seattle","name":"5 Spot","phone":"+12062857768","rating":4,"lat":47.63253,"lng":-122.35672,"zipcode":"98109","address":"1502 Queen Anne Ave N","categories":[{"alias":"tradamerican","title":"American (Traditional)"},{"alias":"breakfast_brunch","title":"Breakfast & Brunch"}]},{"id":"super-six-seattle","name":"Super Six","phone":"+12064201201","rating":4,"lat":47.55728,"lng":-122.28556,"zipcode":"98118","address":"3714 S Hudson St","categories":[{"alias":"asianfusion","title":"Asian Fusion"},{"alias":"hawaiian","title":"Hawaiian"},{"alias":"newamerican","title":"American (New)"}]},{"id":"betty-seattle","name":"Betty","phone":"+12063523773","rating":4,"lat":47.63267,"lng":-122.35727,"zipcode":"98109","address":"1507 Queen Anne Ave N","categories":[{"alias":"newamerican","title":"American (New)"},{"alias":"gourmet","title":"Specialty Food"},{"alias":"cocktailbars","title":"Cocktail Bars"}]},{"id":"bar-cantinetta-seattle","name":"Bar Cantinetta","phone":"+12063291501","rating":4.5,"lat":47.623614,"lng":-122.29551,"zipcode":"98112","address":"2811 E Madison St","categories":[{"alias":"tuscan","title":"Tuscan"}]},{"id":"local-360-seattle-2","name":"Local 360","phone":"+12064419360","rating":4,"lat":47.61345,"lng":-122.34609,"zipcode":"98121","address":"2234 1st Ave","categories":[{"alias":"newamerican","title":"American (New)"},{"alias":"breakfast_brunch","title":"Breakfast & Brunch"},{"alias":"bars","title":"Bars"}]},{"id":"fonda-la-catrina-seattle","name":"Fonda La Catrina","phone":"+12067672787","rating":4,"lat":47.54992,"lng":-122.31781,"zipcode":"98108","address":"5905 Airport Way S","categories":[{"alias":"mexican","title":"Mexican"}]},{"id":"burgundian-seattle","name":"Burgundian","phone":"+12064208943","rating":4,"lat":47.6689099,"lng":-122.33142,"zipcode":"98103","address":"2253 N 56th St","categories":[{"alias":"newamerican","title":"American (New)"},{"alias":"breakfast_brunch","title":"Breakfast & Brunch"},{"alias":"cocktailbars","title":"Cocktail Bars"}]},{"id":"the-white-swan-public-house-seattle-2","name":"The White Swan Public House","phone":"+12065882680","rating":4,"lat":47.6288185119629,"lng":-122.331748962402,"zipcode":"98109","address":"1001 Fairview Ave N","categories":[{"alias":"seafood","title":"Seafood"},{"alias":"cocktailbars","title":"Cocktail Bars"},{"alias":"venues","title":"Venues & Event Spaces"}]},{"id":"no-anchor-seattle-3","name":"No Anchor","phone":"+12064482610","rating":4,"lat":47.615292215253,"lng":-122.34843313694,"zipcode":"98121","address":"2505 2nd Ave","categories":[{"alias":"beerbar","title":"Beer Bar"},{"alias":"newamerican","title":"American (New)"},{"alias":"gastropubs","title":"Gastropubs"}]},{"id":"morfire-seattle","name":"Morfire","phone":"+12068298293","rating":4.5,"lat":47.6178983287513,"lng":-122.31685490353,"zipcode":"98122","address":"1806 12th Ave","categories":[{"alias":"thai","title":"Thai"},{"alias":"hotpot","title":"Hot Pot"},{"alias":"bars","title":"Bars"}]},{"id":"san-fernando-roasted-chicken-seattle","name":"San Fernando Roasted Chicken","phone":"+12063313763","rating":4,"lat":47.59401,"lng":-122.30967,"zipcode":"98144","address":"900 Rainier Ave S","categories":[{"alias":"peruvian","title":"Peruvian"},{"alias":"bbq","title":"Barbeque"},{"alias":"chickenshop","title":"Chicken Shop"}]},{"id":"din-tai-fung-seattle-14","name":"Din Tai Fung","phone":"+12066829888","rating":4,"lat":47.61289,"lng":-122.33531,"zipcode":"98101","address":"600 Pine St","categories":[{"alias":"taiwanese","title":"Taiwanese"},{"alias":"shanghainese","title":"Shanghainese"},{"alias":"dimsum","title":"Dim Sum"}]},{"id":"mezcaleria-oaxaca-seattle","name":"Mezcaleria Oaxaca","phone":"+12062164446","rating":4,"lat":47.63777,"lng":-122.35717,"zipcode":"98109","address":"2123 Queen Anne Ave N","categories":[{"alias":"mexican","title":"Mexican"}]},{"id":"sizzle-and-crunch-seattle","name":"Sizzle&Crunch","phone":"+12065472723","rating":4,"lat":47.65822,"lng":-122.31372,"zipcode":"98105","address":"1313 NE 42nd St","categories":[{"alias":"vietnamese","title":"Vietnamese"},{"alias":"salad","title":"Salad"},{"alias":"sandwiches","title":"Sandwiches"}]},{"id":"dukes-seafood-and-chowder-seattle-3","name":"Duke's Seafood & Chowder","phone":"+12063829963","rating":4,"lat":47.6280260632239,"lng":-122.333892183964,"zipcode":"98109","address":"901 Fairview Ave N","categories":[{"alias":"seafood","title":"Seafood"},{"alias":"salad","title":"Salad"},{"alias":"burgers","title":"Burgers"}]},{"id":"the-butchers-table-seattle","name":"The Butcher's Table","phone":"+12062095990","rating":4,"lat":47.6174,"lng":-122.33869,"zipcode":"98121","address":"2121 Westlake Ave","categories":[{"alias":"steak","title":"Steakhouses"},{"alias":"butcher","title":"Butcher"},{"alias":"musicvenues","title":"Music Venues"}]},{"id":"ramen-danbo-seattle-2","name":"Ramen Danbo","phone":"+12065665479","rating":4.5,"lat":47.61548,"lng":-122.31594,"zipcode":"98122","address":"1222 E Pine St","categories":[{"alias":"ramen","title":"Ramen"}]},{"id":"king-noodle-seattle","name":"King Noodle","phone":"+12067489168","rating":4,"lat":47.5982,"lng":-122.32551,"zipcode":"98104","address":"615 S King St","categories":[{"alias":"chinese","title":"Chinese"},{"alias":"noodles","title":"Noodles"}]},{"id":"damn-the-weather-seattle","name":"Damn the Weather","phone":"+12069461283","rating":4,"lat":47.6011167,"lng":-122.3340814,"zipcode":"98104","address":"116 1st Ave S","categories":[{"alias":"cocktailbars","title":"Cocktail Bars"},{"alias":"newamerican","title":"American (New)"},{"alias":"tapasmallplates","title":"Tapas/Small Plates"}]},{"id":"smarty-pants-seattle","name":"Smarty Pants","phone":"+12067624777","rating":4,"lat":47.54881,"lng":-122.31664,"zipcode":"98108","address":"6017 Airport Way S","categories":[{"alias":"tradamerican","title":"American (Traditional)"},{"alias":"bars","title":"Bars"}]},{"id":"gravy-vashon","name":"Gravy","phone":"+12064630489","rating":4,"lat":47.44654,"lng":-122.46079,"zipcode":"98070","address":"17629 Vashon Hwy SW","categories":[{"alias":"newamerican","title":"American (New)"},{"alias":"bbq","title":"Barbeque"},{"alias":"comfortfood","title":"Comfort Food"}]},{"id":"st-clouds-seattle","name":"St. Clouds","phone":"+12067261522","rating":4,"lat":47.6125210159972,"lng":-122.289569377899,"zipcode":"98122","address":"1131 34th Ave","categories":[{"alias":"newamerican","title":"American (New)"},{"alias":"cocktailbars","title":"Cocktail Bars"},{"alias":"breakfast_brunch","title":"Breakfast & Brunch"}]},{"id":"maono-seattle","name":"Ma'ono","phone":"+12069351075","rating":4,"lat":47.5636486287425,"lng":-122.386841379762,"zipcode":"98116","address":"4437 California Ave SW","categories":[{"alias":"hawaiian","title":"Hawaiian"},{"alias":"chickenshop","title":"Chicken Shop"}]},{"id":"opus-co-seattle-2","name":"Opus Co","phone":"+12064208360","rating":4.5,"lat":47.68286,"lng":-122.35507,"zipcode":"98103","address":"7410 Greenwood Ave N","categories":[{"alias":"newamerican","title":"American (New)"}]},{"id":"triumph-bar-seattle","name":"Triumph Bar","phone":"+12064201791","rating":4,"lat":47.6233123987913,"lng":-122.355095744133,"zipcode":"98109","address":"114 Republican St","categories":[{"alias":"wine_bars","title":"Wine Bars"},{"alias":"cocktailbars","title":"Cocktail Bars"},{"alias":"gastropubs","title":"Gastropubs"}]},{"id":"sunfish-seattle","name":"Sunfish","phone":"+12069384112","rating":4,"lat":47.5784187316895,"lng":-122.41219329834,"zipcode":"98116","address":"2800 Alki Ave SW","categories":[{"alias":"seafood","title":"Seafood"},{"alias":"fishnchips","title":"Fish & Chips"}]},{"id":"hitchcock-delicatessen-and-charcuterie-bainbridge-island","name":"Hitchcock Delicatessen & Charcuterie","phone":"+12064514609","rating":4,"lat":47.6248355,"lng":-122.5205022,"zipcode":"98110","address":"129 Winslow Way E","categories":[{"alias":"delis","title":"Delis"},{"alias":"meats","title":"Meat Shops"},{"alias":"coffee","title":"Coffee & Tea"}]},{"id":"five-hooks-fish-grill-seattle","name":"Five Hooks Fish Grill","phone":"+12064031263","rating":4,"lat":47.639418,"lng":-122.356603,"zipcode":"98109","address":"2232 Queen Anne Ave N","categories":[{"alias":"seafood","title":"Seafood"},{"alias":"fishnchips","title":"Fish & Chips"}]},{"id":"streamliner-diner-bainbridge-island-4","name":"Streamliner Diner","phone":"+12068428595","rating":4,"lat":47.6246598,"lng":-122.5169257,"zipcode":"98110","address":"397 Winslow Way E","categories":[{"alias":"tradamerican","title":"American (Traditional)"},{"alias":"italian","title":"Italian"},{"alias":"diners","title":"Diners"}]},{"id":"kiin-kiin-seattle","name":"kiin kiin","phone":"+12069223234","rating":4.5,"lat":47.7020373781675,"lng":-122.362776653598,"zipcode":"98177","address":"10023 Holman Rd NW","categories":[{"alias":"thai","title":"Thai"}]},{"id":"mioposto-seattle-7","name":"Mioposto","phone":"+12067603400","rating":4,"lat":47.57802,"lng":-122.28808,"zipcode":"98144","address":"3601 S McClellan St","categories":[{"alias":"italian","title":"Italian"},{"alias":"pizza","title":"Pizza"},{"alias":"breakfast_brunch","title":"Breakfast & Brunch"}]},{"id":"habitant-seattle-3","name":"Habitant","phone":"+12066281635","rating":4.5,"lat":47.6122932434082,"lng":-122.336288452148,"zipcode":"98101","address":"Nordstrom","categories":[{"alias":"newamerican","title":"American (New)"},{"alias":"tapasmallplates","title":"Tapas/Small Plates"},{"alias":"tapas","title":"Tapas Bars"}]},{"id":"bramble-house-vashon","name":"Bramble House","phone":"+12064087159","rating":4,"lat":47.4516599,"lng":-122.46105,"zipcode":"98070","address":"17123 Vashon Hwy SW","categories":[{"alias":"newamerican","title":"American (New)"}]},{"id":"re-public-seattle-2","name":"re:public","phone":"+12064675300","rating":4,"lat":47.62289,"lng":-122.33876,"zipcode":"98109","address":"429 Westlake Ave N","categories":[{"alias":"newamerican","title":"American (New)"},{"alias":"bars","title":"Bars"},{"alias":"breakfast_brunch","title":"Breakfast & Brunch"}]},{"id":"restaurant-marché-bainbridge-island","name":"Restaurant Marché","phone":"+12068421633","rating":4,"lat":47.6255632195682,"lng":-122.519387733245,"zipcode":"98110","address":"150 Madrone Ln","categories":[{"alias":"french","title":"French"},{"alias":"beer_and_wine","title":"Beer, Wine & Spirits"},{"alias":"diners","title":"Diners"}]},{"id":"che-sara-sara-seattle","name":"Che Sara Sara","phone":"+12066230125","rating":4,"lat":47.6001402501575,"lng":-122.33398810029,"zipcode":"98104","address":"222 1st Ave S","categories":[{"alias":"italian","title":"Italian"}]},{"id":"the-harbour-public-house-bainbridge-island","name":"The Harbour Public House","phone":"+12068420969","rating":3.5,"lat":47.6213,"lng":-122.52297,"zipcode":"98110","address":"231 Parfitt Way SW","categories":[{"alias":"tradamerican","title":"American (Traditional)"},{"alias":"pubs","title":"Pubs"},{"alias":"seafood","title":"Seafood"}]},{"id":"irashai-sushi-seattle","name":"Irashai Sushi","phone":"+12065822033","rating":4,"lat":47.5814499,"lng":-122.38623,"zipcode":"98116","address":"2352 California Ave SW","categories":[{"alias":"sushi","title":"Sushi Bars"},{"alias":"japanese","title":"Japanese"}]},{"id":"pepperdock-restaurant-seattle","name":"Pepperdock Restaurant","phone":"+12069351000","rating":4,"lat":47.58021,"lng":-122.40717,"zipcode":"98116","address":"2618 Alki Ave SW","categories":[{"alias":"fishnchips","title":"Fish & Chips"},{"alias":"icecream","title":"Ice Cream & Frozen Yogurt"},{"alias":"burgers","title":"Burgers"}]},{"id":"bruciato-bainbridge-island","name":"Bruciato","phone":"+12062013462","rating":4,"lat":47.6248875528946,"lng":-122.518638735762,"zipcode":"98110","address":"236 Winslow Way E","categories":[{"alias":"pizza","title":"Pizza"},{"alias":"italian","title":"Italian"},{"alias":"bars","title":"Bars"}]},{"id":"chi-mac-seattle","name":"Chi Mac","phone":"+12065475151","rating":4.5,"lat":47.66208,"lng":-122.31344,"zipcode":"98105","address":"4525 University Way NE","categories":[{"alias":"korean","title":"Korean"},{"alias":"chicken_wings","title":"Chicken Wings"},{"alias":"beerbar","title":"Beer Bar"}]},{"id":"fob-poke-bar-seattle-2","name":"FOB Poke Bar","phone":"+12067289888","rating":5,"lat":47.6138005187095,"lng":-122.343868017197,"zipcode":"98121","address":"220 Blanchard St","categories":[{"alias":"poke","title":"Poke"},{"alias":"salad","title":"Salad"},{"alias":"hawaiian","title":"Hawaiian"}]},{"id":"sound-and-fog-seattle","name":"Sound & Fog","phone":"+12066181444","rating":5,"lat":47.55994,"lng":-122.38326,"zipcode":"98116","address":"4735 40th Ave SW","categories":[{"alias":"bars","title":"Bars"},{"alias":"cafes","title":"Cafes"},{"alias":"coffee","title":"Coffee & Tea"}]},{"id":"rockys-empanadas-redmond","name":"Rocky's Empanadas","phone":"+14259968820","rating":5,"lat":47.6623433279036,"lng":-122.09549220105,"zipcode":"98052","address":"18348 Redmond Way","categories":[{"alias":"argentine","title":"Argentine"},{"alias":"empanadas","title":"Empanadas"}]},{"id":"valhalla-sandwiches-seattle","name":"Valhalla Sandwiches","phone":"+12062570658","rating":4.5,"lat":47.6885414123535,"lng":-122.355018615723,"zipcode":"98103","address":"8202 Greenwood Ave N","categories":[{"alias":"sandwiches","title":"Sandwiches"}]},{"id":"tacos-chukis-seattle","name":"Tacos Chukis","phone":"+12063284447","rating":4.5,"lat":47.620570445175,"lng":-122.321262359619,"zipcode":"98102","address":"219 Broadway E","categories":[{"alias":"mexican","title":"Mexican"},{"alias":"sandwiches","title":"Sandwiches"}]},{"id":"asadero-sinaloa-kent","name":"Asadero Sinaloa","phone":"+12065922587","rating":4.5,"lat":47.381254055914,"lng":-122.285767873224,"zipcode":"98032","address":"24602 36th Ave S","categories":[{"alias":"mexican","title":"Mexican"},{"alias":"steak","title":"Steakhouses"}]},{"id":"butcher-and-baker-provisions-port-gamble","name":"Butcher & Baker Provisions","phone":"+13602979500","rating":4.5,"lat":47.85396,"lng":-122.58554,"zipcode":"98364","address":"4719 NE State Hwy 104","categories":[{"alias":"bakeries","title":"Bakeries"},{"alias":"burgers","title":"Burgers"},{"alias":"butcher","title":"Butcher"}]},{"id":"ohana-kitchen-burien","name":"Ohana Kitchen","phone":"+12062463501","rating":4.5,"lat":47.4665898157456,"lng":-122.338290028274,"zipcode":"98166","address":"241 SW 152nd St","categories":[{"alias":"korean","title":"Korean"},{"alias":"hawaiian","title":"Hawaiian"},{"alias":"poke","title":"Poke"}]},{"id":"paseo-caribbean-food-fremont-seattle-2","name":"Paseo Caribbean Food - Fremont","phone":"+12065457440","rating":4.5,"lat":47.65849,"lng":-122.35031,"zipcode":"98103","address":"4225 Fremont Ave N","categories":[{"alias":"caribbean","title":"Caribbean"},{"alias":"cuban","title":"Cuban"},{"alias":"sandwiches","title":"Sandwiches"}]},{"id":"some-random-bar-seattle","name":"Some Random Bar","phone":"","rating":4.5,"lat":47.6155010022786,"lng":-122.349802245912,"zipcode":"98121","address":"2604 1st Ave","categories":[{"alias":"gastropubs","title":"Gastropubs"},{"alias":"cocktailbars","title":"Cocktail Bars"}]},{"id":"il-corvo-pasta-seattle","name":"Il Corvo Pasta","phone":"+12065380999","rating":4.5,"lat":47.60244,"lng":-122.33165,"zipcode":"98104","address":"217 James St","categories":[{"alias":"italian","title":"Italian"},{"alias":"noodles","title":"Noodles"},{"alias":"pastashops","title":"Pasta Shops"}]},{"id":"via-rosa-11-bainbridge-island","name":"Via Rosa 11","phone":"+12064514640","rating":4.5,"lat":47.6647401,"lng":-122.5104549,"zipcode":"98110","address":"11201 Sunrise Dr","categories":[{"alias":"grocery","title":"Grocery"},{"alias":"italian","title":"Italian"}]},{"id":"cook-weaver-seattle-2","name":"Cook Weaver","phone":"+12063240599","rating":4.5,"lat":47.62522,"lng":-122.32172,"zipcode":"98102","address":"806 E Roy St","categories":[{"alias":"desserts","title":"Desserts"},{"alias":"modern_european","title":"Modern European"},{"alias":"cocktailbars","title":"Cocktail Bars"}]},{"id":"bongos-seattle","name":"Bongos","phone":"+12064208548","rating":4.5,"lat":47.6767449533551,"lng":-122.346925400198,"zipcode":"98103","address":"6501 Aurora Ave N","categories":[{"alias":"cuban","title":"Cuban"},{"alias":"caribbean","title":"Caribbean"}]},{"id":"the-station-seattle-3","name":"The Station","phone":"+12064534892","rating":4.5,"lat":47.579563,"lng":-122.311864,"zipcode":"98144","address":"1600 S Roberto Maestas Festival St","categories":[{"alias":"coffee","title":"Coffee & Tea"},{"alias":"italian","title":"Italian"},{"alias":"mexican","title":"Mexican"}]},{"id":"ummas-lunch-box-seattle","name":"Umma's Lunch Box","phone":"+12068543166","rating":4.5,"lat":47.60884,"lng":-122.33425,"zipcode":"98101","address":"1301 5th Ave","categories":[{"alias":"korean","title":"Korean"},{"alias":"buffets","title":"Buffets"}]},{"id":"burien-fish-house-burien","name":"Burien Fish House","phone":"+12062943506","rating":4.5,"lat":47.4659789,"lng":-122.3354993,"zipcode":"98166","address":"133 SW 153rd St","categories":[{"alias":"seafood","title":"Seafood"},{"alias":"fishnchips","title":"Fish & Chips"},{"alias":"sandwiches","title":"Sandwiches"}]},{"id":"the-greek-house-burien","name":"The Greek House","phone":"+12066864030","rating":4.5,"lat":47.465831,"lng":-122.334536,"zipcode":"98166","address":"113 SW 153rd St","categories":[{"alias":"greek","title":"Greek"},{"alias":"lounges","title":"Lounges"}]},{"id":"pike-place-chowder-seattle","name":"Pike Place Chowder","phone":"+12062672537","rating":4.5,"lat":47.6126822677179,"lng":-122.334947066085,"zipcode":"98101","address":"1530 Post Aly","categories":[{"alias":"seafood","title":"Seafood"},{"alias":"tradamerican","title":"American (Traditional)"},{"alias":"soup","title":"Soup"}]},{"id":"wallys-chowder-house-and-broiler-des-moines","name":"Wally's Chowder House & Broiler","phone":"+12068788140","rating":4.5,"lat":47.3994483947754,"lng":-122.324821472168,"zipcode":"98198","address":"22531 Marine View Dr S","categories":[{"alias":"seafood","title":"Seafood"},{"alias":"fishnchips","title":"Fish & Chips"}]},{"id":"deru-market-kirkland","name":"DERU market","phone":"+14252980268","rating":4.5,"lat":47.6820752,"lng":-122.1941814,"zipcode":"98033","address":"723 9th Ave","categories":[{"alias":"pizza","title":"Pizza"},{"alias":"newamerican","title":"American (New)"},{"alias":"breakfast_brunch","title":"Breakfast & Brunch"}]},{"id":"bucatini-edmonds","name":"Bucatini","phone":"+14253611487","rating":4.5,"lat":47.790518,"lng":-122.365058,"zipcode":"98020","address":"9818 Edmonds Way","categories":[{"alias":"italian","title":"Italian"},{"alias":"salad","title":"Salad"},{"alias":"comfortfood","title":"Comfort Food"}]},{"id":"billiard-hoang-seattle-2","name":"Billiard Hoang","phone":"+12067232054","rating":4.5,"lat":47.5573,"lng":-122.29015,"zipcode":"98118","address":"3220 S Hudson St","categories":[{"alias":"vietnamese","title":"Vietnamese"},{"alias":"poolhalls","title":"Pool Halls"},{"alias":"sandwiches","title":"Sandwiches"}]},{"id":"may-kitchen-and-bar-vashon-2","name":"May Kitchen & Bar","phone":"+12064087196","rating":4.5,"lat":47.44694,"lng":-122.46012,"zipcode":"98070","address":"17614 Vashon Hwy SW","categories":[{"alias":"thai","title":"Thai"},{"alias":"cambodian","title":"Cambodian"},{"alias":"wine_bars","title":"Wine Bars"}]},{"id":"intermezzo-carmine-seattle-2","name":"Intermezzo Carmine","phone":"+12065968940","rating":4.5,"lat":47.5988331,"lng":-122.3342651,"zipcode":"98104","address":"409 1st Ave S","categories":[{"alias":"cocktailbars","title":"Cocktail Bars"},{"alias":"italian","title":"Italian"}]},{"id":"aglio-e-olio-seattle","name":"Aglio e Olio","phone":"+12067098883","rating":4.5,"lat":47.62323,"lng":-122.29593,"zipcode":"98112","address":"2743 E Madison St","categories":[{"alias":"italian","title":"Italian"},{"alias":"pizza","title":"Pizza"},{"alias":"sandwiches","title":"Sandwiches"}]},{"id":"asadero-ballard-seattle","name":"Asadero Ballard","phone":"+12066594499","rating":4.5,"lat":47.66687,"lng":-122.38282,"zipcode":"98107","address":"5405 Leary Ave NW","categories":[{"alias":"mexican","title":"Mexican"},{"alias":"bbq","title":"Barbeque"},{"alias":"steak","title":"Steakhouses"}]},{"id":"flintcreek-cattle-seattle-2","name":"Flintcreek Cattle","phone":"+12064575656","rating":4.5,"lat":47.6904199617095,"lng":-122.355570159853,"zipcode":"98103","address":"8421 Greenwood Ave N","categories":[{"alias":"newamerican","title":"American (New)"},{"alias":"steak","title":"Steakhouses"}]},{"id":"radiator-whiskey-seattle","name":"Radiator Whiskey","phone":"+12064674268","rating":4.5,"lat":47.60888,"lng":-122.34036,"zipcode":"98101","address":"94 Pike St","categories":[{"alias":"newamerican","title":"American (New)"},{"alias":"cocktailbars","title":"Cocktail Bars"}]},{"id":"copine-seattle","name":"Copine","phone":"+12062582467","rating":4.5,"lat":47.6758391329994,"lng":-122.387506788495,"zipcode":"98107","address":"6460 24th Ave NW","categories":[{"alias":"newamerican","title":"American (New)"}]},{"id":"chan-seattle-seattle-2","name":"Chan Seattle","phone":"+12064435443","rating":4.5,"lat":47.6098823547363,"lng":-122.341438293457,"zipcode":"98101","address":"86 Pine St","categories":[{"alias":"asianfusion","title":"Asian Fusion"},{"alias":"korean","title":"Korean"},{"alias":"gastropubs","title":"Gastropubs"}]},{"id":"cascina-spinasse-seattle","name":"Cascina Spinasse","phone":"+12062517673","rating":4.5,"lat":47.61505,"lng":-122.31442,"zipcode":"98122","address":"1531 14th Ave","categories":[{"alias":"italian","title":"Italian"}]},{"id":"piroshky-piroshky-seattle","name":"Piroshky Piroshky","phone":"+12064416068","rating":4.5,"lat":47.60991,"lng":-122.34231,"zipcode":"98101","address":"1908 Pike Pl","categories":[{"alias":"bakeries","title":"Bakeries"},{"alias":"russian","title":"Russian"}]},{"id":"bistro-baffi-burien-2","name":"Bistro Baffi","phone":"+12062440737","rating":4.5,"lat":47.4660927057266,"lng":-122.360684126616,"zipcode":"98166","address":"15217 21st Ave SW","categories":[{"alias":"italian","title":"Italian"}]},{"id":"art-of-the-table-seattle","name":"Art of The Table","phone":"+12062820942","rating":4.5,"lat":47.65297,"lng":-122.34303,"zipcode":"98103","address":"3801 Stone Way N","categories":[{"alias":"newamerican","title":"American (New)"}]},{"id":"jakes-pickup-bainbridge-island","name":"Jake's Pickup","phone":"+12068425595","rating":4.5,"lat":47.6359114177256,"lng":-122.515821998155,"zipcode":"98110","address":"406 NE High School Rd","categories":[{"alias":"comfortfood","title":"Comfort Food"},{"alias":"coffee","title":"Coffee & Tea"},{"alias":"newamerican","title":"American (New)"}]},{"id":"manolin-seattle","name":"Manolin","phone":"+12062943331","rating":4.5,"lat":47.651215,"lng":-122.343091,"zipcode":"98103","address":"3621 Stone Way N","categories":[{"alias":"seafood","title":"Seafood"}]},{"id":"shiros-seattle","name":"Shiro's","phone":"+12064439844","rating":4.5,"lat":47.6147782162181,"lng":-122.347327076057,"zipcode":"98121","address":"2401 2nd Ave","categories":[{"alias":"sushi","title":"Sushi Bars"},{"alias":"japanese","title":"Japanese"}]},{"id":"fogón-cocina-mexicana-seattle-2","name":"Fogón Cocina Mexicana","phone":"+12063207777","rating":4.5,"lat":47.6153793,"lng":-122.3240814,"zipcode":"98122","address":"600 E Pine St","categories":[{"alias":"mexican","title":"Mexican"}]},{"id":"heartwood-provisions-seattle-3","name":"Heartwood Provisions","phone":"+12065823505","rating":4.5,"lat":47.6054687,"lng":-122.3369829,"zipcode":"98101","address":"1103 1st Ave","categories":[{"alias":"newamerican","title":"American (New)"},{"alias":"bars","title":"Bars"},{"alias":"desserts","title":"Desserts"}]},{"id":"huong-duong-seattle","name":"Huong Duong","phone":"+12068497794","rating":4.5,"lat":47.537775,"lng":-122.281089,"zipcode":"98118","address":"7136 Martin Luther King Jr Way S","categories":[{"alias":"vietnamese","title":"Vietnamese"},{"alias":"noodles","title":"Noodles"},{"alias":"seafood","title":"Seafood"}]},{"id":"noble-barton-seattle-2","name":"Noble Barton","phone":"+12064207574","rating":4.5,"lat":47.5162,"lng":-122.35556,"zipcode":"98106","address":"9635 16th Ave SW","categories":[{"alias":"pubs","title":"Pubs"},{"alias":"breakfast_brunch","title":"Breakfast & Brunch"},{"alias":"burgers","title":"Burgers"}]},{"id":"istanbul-cuisine-cafe-bellevue","name":"Istanbul Cuisine Cafe","phone":"+14254552101","rating":4.5,"lat":47.6155167141531,"lng":-122.202008358461,"zipcode":"98004","address":"405 Bellevue Way NE","categories":[{"alias":"turkish","title":"Turkish"},{"alias":"mediterranean","title":"Mediterranean"},{"alias":"halal","title":"Halal"}]},{"id":"shaker-and-spear-seattle-2","name":"Shaker and Spear","phone":"+12068261700","rating":4.5,"lat":47.61203,"lng":-122.34165,"zipcode":"98121","address":"2000 2nd Ave","categories":[{"alias":"seafood","title":"Seafood"},{"alias":"newamerican","title":"American (New)"},{"alias":"breakfast_brunch","title":"Breakfast & Brunch"}]},{"id":"list-seattle","name":"List","phone":"+12064411000","rating":4.5,"lat":47.61334,"lng":-122.34587,"zipcode":"98121","address":"2226 1st Ave","categories":[{"alias":"italian","title":"Italian"},{"alias":"tapasmallplates","title":"Tapas/Small Plates"},{"alias":"cocktailbars","title":"Cocktail Bars"}]},{"id":"pomodoro-seattle","name":"Pomodoro","phone":"+12063243160","rating":4.5,"lat":47.641699,"lng":-122.325672,"zipcode":"98102","address":"2366 Eastlake Ave E","categories":[{"alias":"italian","title":"Italian"},{"alias":"spanish","title":"Spanish"},{"alias":"basque","title":"Basque"}]},{"id":"zig-zag-cafe-seattle-2","name":"Zig Zag Cafe","phone":"+12066251146","rating":4.5,"lat":47.6083803,"lng":-122.3414779,"zipcode":"98101","address":"1501 Western Ave","categories":[{"alias":"newamerican","title":"American (New)"},{"alias":"cocktailbars","title":"Cocktail Bars"},{"alias":"mediterranean","title":"Mediterranean"}]},{"id":"the-pink-door-seattle-4","name":"The Pink Door","phone":"+12064433241","rating":4,"lat":47.61028,"lng":-122.3425,"zipcode":"98101","address":"1919 Post Aly","categories":[{"alias":"italian","title":"Italian"},{"alias":"wine_bars","title":"Wine Bars"},{"alias":"gluten_free","title":"Gluten-Free"}]},{"id":"tilikum-place-cafe-seattle-3","name":"Tilikum Place Cafe","phone":"+12062824830","rating":4.5,"lat":47.61787,"lng":-122.34751,"zipcode":"98121","address":"407 Cedar St","categories":[{"alias":"breakfast_brunch","title":"Breakfast & Brunch"},{"alias":"cafes","title":"Cafes"}]},{"id":"pestle-rock-seattle","name":"Pestle Rock","phone":"+12064666671","rating":4.5,"lat":47.668499,"lng":-122.386528,"zipcode":"98107","address":"2305 NW Market St","categories":[{"alias":"thai","title":"Thai"}]},{"id":"orfeo-seattle","name":"Orfeo","phone":"+12064431972","rating":4,"lat":47.6131858825684,"lng":-122.342834472656,"zipcode":"98121","address":"2107 3rd Ave","categories":[{"alias":"newamerican","title":"American (New)"},{"alias":"italian","title":"Italian"},{"alias":"pizza","title":"Pizza"}]},{"id":"woodblock-redmond","name":"Woodblock","phone":"+14252859458","rating":4,"lat":47.6736992477145,"lng":-122.12486310423,"zipcode":"98052","address":"16175 Cleveland St","categories":[{"alias":"cocktailbars","title":"Cocktail Bars"},{"alias":"newamerican","title":"American (New)"}]},{"id":"herb-and-bitter-public-house-seattle","name":"Herb & Bitter Public House","phone":"+12067086468","rating":4,"lat":47.6236055711029,"lng":-122.320748173641,"zipcode":"98102","address":"516 Broadway E","categories":[{"alias":"tapasmallplates","title":"Tapas/Small Plates"}]},{"id":"karaage-setsuna-seattle","name":"Karaage Setsuna","phone":"+12064483595","rating":4.5,"lat":47.61493,"lng":-122.34756,"zipcode":"98121","address":"2421 2nd Ave","categories":[{"alias":"japanese","title":"Japanese"},{"alias":"hawaiian","title":"Hawaiian"}]},{"id":"marination-ma-kai-seattle","name":"Marination Ma Kai","phone":"+12063288226","rating":4,"lat":47.5895547295386,"lng":-122.380718663883,"zipcode":"98126","address":"1660 Harbor Ave SW","categories":[{"alias":"korean","title":"Korean"},{"alias":"hawaiian","title":"Hawaiian"},{"alias":"asianfusion","title":"Asian Fusion"}]},{"id":"crawfish-house-seattle","name":"Crawfish House","phone":"+12065881613","rating":4,"lat":47.5147199,"lng":-122.35484,"zipcode":"98106","address":"9826 16th Ave SW","categories":[{"alias":"cajun","title":"Cajun/Creole"},{"alias":"seafood","title":"Seafood"},{"alias":"diners","title":"Diners"}]},{"id":"lecōsho-seattle-2","name":"Lecōsho","phone":"+12066232101","rating":4,"lat":47.606474929346,"lng":-122.3387322711,"zipcode":"98101","address":"89 University St","categories":[{"alias":"newamerican","title":"American (New)"},{"alias":"bars","title":"Bars"},{"alias":"seafood","title":"Seafood"}]},{"id":"circa-seattle","name":"Circa","phone":"+12069231102","rating":4,"lat":47.5809,"lng":-122.38683,"zipcode":"98116","address":"2605 California Ave SW","categories":[{"alias":"newamerican","title":"American (New)"},{"alias":"breakfast_brunch","title":"Breakfast & Brunch"}]},{"id":"wood-shop-bbq-seattle","name":"Wood Shop BBQ","phone":"+12064857381","rating":4.5,"lat":47.59906,"lng":-122.29914,"zipcode":"98144","address":"2513 S Jackson St","categories":[{"alias":"foodtrucks","title":"Food Trucks"},{"alias":"bbq","title":"Barbeque"},{"alias":"sandwiches","title":"Sandwiches"}]},{"id":"palisade-seattle","name":"Palisade","phone":"+12062851000","rating":4,"lat":47.6302682978454,"lng":-122.391484938562,"zipcode":"98199","address":"2601 W Marina Pl","categories":[{"alias":"seafood","title":"Seafood"},{"alias":"steak","title":"Steakhouses"},{"alias":"asianfusion","title":"Asian Fusion"}]},{"id":"shawns-cafe-and-bakery-mercer-island-2","name":"Shawn's Cafe & Bakery","phone":"+12062323221","rating":4.5,"lat":47.58932,"lng":-122.2395,"zipcode":"98040","address":"7420 SE 24th St","categories":[{"alias":"coffee","title":"Coffee & Tea"},{"alias":"sandwiches","title":"Sandwiches"},{"alias":"cafes","title":"Cafes"}]},{"id":"magic-dragon-seattle-3","name":"Magic Dragon","phone":"+12062847470","rating":4.5,"lat":47.6355999,"lng":-122.37702,"zipcode":"98119","address":"1827 15th Ave W","categories":[{"alias":"chinese","title":"Chinese"}]},{"id":"stateside-seattle-3","name":"Stateside","phone":"+12065577273","rating":4,"lat":47.614223,"lng":-122.327613,"zipcode":"98122","address":"300 E Pike St","categories":[{"alias":"vietnamese","title":"Vietnamese"},{"alias":"asianfusion","title":"Asian Fusion"},{"alias":"panasian","title":"Pan Asian"}]},{"id":"bluestone-seattle","name":"BlueStone","phone":"+12067260141","rating":4,"lat":47.6193161,"lng":-122.3245163,"zipcode":"98102","address":"1631 E Olive Way","categories":[{"alias":"korean","title":"Korean"}]},{"id":"japonessa-seattle-3","name":"Japonessa","phone":"+12069717979","rating":4,"lat":47.60809,"lng":-122.33899,"zipcode":"98101","address":"1400 1st Ave","categories":[{"alias":"japanese","title":"Japanese"},{"alias":"sushi","title":"Sushi Bars"}]},{"id":"the-westy-seattle-2","name":"The Westy","phone":"+12069378977","rating":4.5,"lat":47.531551361084,"lng":-122.376205444336,"zipcode":"98126","address":"7908 35th Ave SW","categories":[{"alias":"sportsbars","title":"Sports Bars"},{"alias":"cocktailbars","title":"Cocktail Bars"},{"alias":"newamerican","title":"American (New)"}]},{"id":"mashawi-mediterranean-cuisine-seattle","name":"Mashawi Mediterranean Cuisine","phone":"+12062820078","rating":4,"lat":47.625564,"lng":-122.349206,"zipcode":"98109","address":"366 Roy St","categories":[{"alias":"mediterranean","title":"Mediterranean"},{"alias":"lebanese","title":"Lebanese"},{"alias":"vegetarian","title":"Vegetarian"}]},{"id":"zamorana-vashon-2","name":"Zamorana","phone":"+12063565684","rating":4.5,"lat":47.4457092285156,"lng":-122.46012878418,"zipcode":"98070","address":"17722 Vashon Hwy SW","categories":[{"alias":"mexican","title":"Mexican"}]},{"id":"tacos-chukis-seattle-5","name":"Tacos Chukis","phone":"+12062489317","rating":4,"lat":47.627003,"lng":-122.342137,"zipcode":"98109","address":"832 Dexter Ave N","categories":[{"alias":"tacos","title":"Tacos"}]},{"id":"tropicos-breeze-seattle-4","name":"Tropicos Breeze","phone":"+12067896241","rating":5,"lat":47.6689,"lng":-122.38096,"zipcode":"98107","address":"1744 NW Market St","categories":[{"alias":"latin","title":"Latin American"},{"alias":"bars","title":"Bars"}]},{"id":"swel-seattle","name":"SWeL","phone":"+12064589815","rating":4.5,"lat":47.6506497158479,"lng":-122.351646939039,"zipcode":"98103","address":"3417 Evanston Ave N","categories":[{"alias":"newamerican","title":"American (New)"}]},{"id":"ooink-seattle","name":"Ooink","phone":"+12065687669","rating":4,"lat":47.6135201,"lng":-122.3219651,"zipcode":"98122","address":"1416 Harvard Ave","categories":[{"alias":"ramen","title":"Ramen"}]},{"id":"barnacle-seattle","name":"Barnacle","phone":"+12067063379","rating":4.5,"lat":47.663511,"lng":-122.38022,"zipcode":"98107","address":"4743 Ballard Ave NW","categories":[{"alias":"wine_bars","title":"Wine Bars"},{"alias":"seafood","title":"Seafood"},{"alias":"tapasmallplates","title":"Tapas/Small Plates"}]},{"id":"elliotts-oyster-house-seattle-2","name":"Elliott's Oyster House","phone":"+12066234340","rating":4,"lat":47.6054699,"lng":-122.34092,"zipcode":"98101","address":"1201 Alaskan Way","categories":[{"alias":"seafood","title":"Seafood"}]},{"id":"crow-seattle","name":"Crow","phone":"+12062838800","rating":4,"lat":47.62702,"lng":-122.34783,"zipcode":"98109","address":"823 5th Ave N","categories":[{"alias":"newamerican","title":"American (New)"},{"alias":"wine_bars","title":"Wine Bars"},{"alias":"desserts","title":"Desserts"}]},{"id":"ciudad-seattle-2","name":"Ciudad","phone":"+12067172984","rating":4.5,"lat":47.5481399,"lng":-122.3169,"zipcode":"98108","address":"6118 12th Ave S","categories":[{"alias":"tapasmallplates","title":"Tapas/Small Plates"},{"alias":"bars","title":"Bars"}]},{"id":"the-masonry-seattle","name":"The Masonry","phone":"+12064534375","rating":4,"lat":47.6257,"lng":-122.35575,"zipcode":"98109","address":"20 Roy St","categories":[{"alias":"bars","title":"Bars"},{"alias":"pizza","title":"Pizza"}]},{"id":"eve-fremont-seattle","name":"Eve Fremont","phone":"+12069007186","rating":4,"lat":47.64972,"lng":-122.34895,"zipcode":"98103","address":"704 N 34th St","categories":[{"alias":"newamerican","title":"American (New)"}]},{"id":"the-butcher-and-the-baker-seattle","name":"The Butcher & The Baker","phone":"+12064143100","rating":4,"lat":47.6756628321622,"lng":-122.325373826984,"zipcode":"98115","address":"6412 Latona Ave NE","categories":[{"alias":"breakfast_brunch","title":"Breakfast & Brunch"}]},{"id":"sidestreet-kitchen-and-bar-burien","name":"Sidestreet Kitchen & Bar","phone":"+12064025428","rating":4.5,"lat":47.4701499,"lng":-122.3439,"zipcode":"98166","address":"717 SW 148th St","categories":[{"alias":"bars","title":"Bars"},{"alias":"newamerican","title":"American (New)"}]},{"id":"island-soul-restaurant-seattle-2","name":"Island Soul Restaurant","phone":"+12063291202","rating":4,"lat":47.5580902099609,"lng":-122.285522460938,"zipcode":"98118","address":"4869 Rainier Ave S","categories":[{"alias":"caribbean","title":"Caribbean"}]},{"id":"six-seven-restaurant-and-lounge-seattle-2","name":"Six Seven","phone":"+12062694575","rating":4,"lat":47.6123040331025,"lng":-122.35230088234,"zipcode":"98121","address":"2411 Alaskan Way","categories":[{"alias":"newamerican","title":"American (New)"},{"alias":"seafood","title":"Seafood"}]},{"id":"babirusa-seattle","name":"Babirusa","phone":"+12063292744","rating":4.5,"lat":47.6393564,"lng":-122.3254135,"zipcode":"98102","address":"2236 Eastlake Ave E","categories":[{"alias":"bars","title":"Bars"},{"alias":"newamerican","title":"American (New)"}]},{"id":"qian-noodle-seattle","name":"Qian Noodle","phone":"+12064076269","rating":4.5,"lat":47.72729,"lng":-122.34429,"zipcode":"98133","address":"13510 Aurora Ave N","categories":[{"alias":"chinese","title":"Chinese"},{"alias":"noodles","title":"Noodles"}]},{"id":"vendemmia-seattle","name":"Vendemmia","phone":"+12064662533","rating":4.5,"lat":47.6122937491713,"lng":-122.289220162563,"zipcode":"98122","address":"1126 34th Ave","categories":[{"alias":"newamerican","title":"American (New)"},{"alias":"italian","title":"Italian"}]},{"id":"serious-pie-and-biscuit-seattle-6","name":"Serious Pie & Biscuit","phone":"+12064360050","rating":4,"lat":47.6230302776194,"lng":-122.338990134455,"zipcode":"98109","address":"401 Westlake Ave N","categories":[{"alias":"pizza","title":"Pizza"},{"alias":"sandwiches","title":"Sandwiches"},{"alias":"bars","title":"Bars"}]},{"id":"stoneburner-seattle","name":"Stoneburner","phone":"+12066952051","rating":4,"lat":47.6662974316062,"lng":-122.382751900253,"zipcode":"98107","address":"5214 Ballard Ave NW","categories":[{"alias":"pizza","title":"Pizza"},{"alias":"bars","title":"Bars"},{"alias":"mediterranean","title":"Mediterranean"}]},{"id":"citizen-six-seattle","name":"Citizen Six","phone":"+12065882224","rating":4.5,"lat":47.62738,"lng":-122.37011,"zipcode":"98119","address":"945 Elliott Ave W","categories":[{"alias":"korean","title":"Korean"},{"alias":"mexican","title":"Mexican"},{"alias":"cocktailbars","title":"Cocktail Bars"}]},{"id":"how-to-cook-a-wolf-seattle","name":"How To Cook a Wolf","phone":"+12068388090","rating":4,"lat":47.6385402665478,"lng":-122.356887666769,"zipcode":"98109","address":"2208 Queen Anne Ave N","categories":[{"alias":"italian","title":"Italian"},{"alias":"tapasmallplates","title":"Tapas/Small Plates"}]},{"id":"mikes-noodle-house-seattle","name":"Mike's Noodle House","phone":"+12063897099","rating":4,"lat":47.59859,"lng":-122.32482,"zipcode":"98104","address":"418 Maynard Ave S","categories":[{"alias":"chinese","title":"Chinese"},{"alias":"noodles","title":"Noodles"}]},{"id":"thackeray-seattle-2","name":"Thackeray","phone":"+12067378743","rating":4,"lat":47.649216,"lng":-122.342439,"zipcode":"98103","address":"3400 Stone Way N","categories":[{"alias":"bars","title":"Bars"},{"alias":"tradamerican","title":"American (Traditional)"}]},{"id":"terrys-kitchen-bellevue-2","name":"Terry's Kitchen","phone":"+14255909545","rating":4.5,"lat":47.5521979155218,"lng":-122.180100381374,"zipcode":"98006","address":"5625 119th Ave SE","categories":[{"alias":"comfortfood","title":"Comfort Food"},{"alias":"desserts","title":"Desserts"},{"alias":"newamerican","title":"American (New)"}]},{"id":"the-zouave-restaurant-seattle","name":"The Zouave Restaurant","phone":"+12065257747","rating":4.5,"lat":47.6756232,"lng":-122.29875,"zipcode":"98115","address":"2615 NE 65th St","categories":[{"alias":"italian","title":"Italian"},{"alias":"french","title":"French"}]},{"id":"the-carlile-room-seattle","name":"The Carlile Room","phone":"+12069469720","rating":4,"lat":47.6133203,"lng":-122.332877,"zipcode":"98101","address":"820 Pine St","categories":[{"alias":"newamerican","title":"American (New)"},{"alias":"bars","title":"Bars"},{"alias":"breakfast_brunch","title":"Breakfast & Brunch"}]},{"id":"cask-and-trotter-seattle-2","name":"Cask & Trotter","phone":"+12064534756","rating":4,"lat":47.626012,"lng":-122.3390033,"zipcode":"98109","address":"711 Westlake Ave N","categories":[{"alias":"bbq","title":"Barbeque"},{"alias":"bars","title":"Bars"},{"alias":"tradamerican","title":"American (Traditional)"}]},{"id":"la-rustica-seattle","name":"La Rustica","phone":"+12069323020","rating":4,"lat":47.5674,"lng":-122.40933,"zipcode":"98116","address":"4100 Beach Dr SW","categories":[{"alias":"italian","title":"Italian"}]},{"id":"black-bottle-seattle-2","name":"Black Bottle","phone":"+12064411500","rating":4,"lat":47.61543,"lng":-122.34967,"zipcode":"98121","address":"2600 1st Ave","categories":[{"alias":"newamerican","title":"American (New)"},{"alias":"gastropubs","title":"Gastropubs"},{"alias":"tapasmallplates","title":"Tapas/Small Plates"}]},{"id":"the-toledo-seattle","name":"The Toledo","phone":"+12063973385","rating":4.5,"lat":47.6338973449184,"lng":-122.342033672089,"zipcode":"98109","address":"1628 Dexter Ave N","categories":[{"alias":"tapas","title":"Tapas Bars"}]},{"id":"westcity-sardine-kitchen-seattle","name":"Westcity Sardine Kitchen","phone":"+12069370155","rating":4,"lat":47.5735781,"lng":-122.3871313,"zipcode":"98116","address":"3405 California Ave SW","categories":[{"alias":"newamerican","title":"American (New)"},{"alias":"italian","title":"Italian"}]},{"id":"red-cedar-and-sage-seattle","name":"Red Cedar & Sage","phone":"+12065380377","rating":4,"lat":47.60871,"lng":-122.34105,"zipcode":"98101","address":"1501 Pike Pl","categories":[{"alias":"newamerican","title":"American (New)"},{"alias":"breakfast_brunch","title":"Breakfast & Brunch"},{"alias":"cocktailbars","title":"Cocktail Bars"}]}]